[
  {
    "name": "Alexander Nevsky Cathedral",
    "religion": "Christianity",
    "denomination": "Eastern Orthodox",
    "country": "Bulgaria",
    "city": "Sofia",
    "address": "Alexander Nevsky Square",
    "latitude": 42.6959,
    "longitude": 23.332,
    "description": "A major Eastern Orthodox cathedral and landmark in Sofia.",
    "image_url": "https://upload.wikimedia.org/wikipedia/commons/a/ad/AlexanderNevskyCathedral-Sofia-6.jpg",
    "website_url": "https://www.cathedral.bg"
  },
  {
    "name": "St. Peter's Basilica",
    "religion": "Christianity",
    "denomination": "Roman Catholic",
    "country": "Vatican City",
    "city": "Vatican City",
    "address": "Piazza San Pietro",
    "latitude": 41.9022,
    "longitude": 12.4539,
    "description": "A major basilica and pilgrimage site in the Vatican.",
    "image_url": "https://upload.wikimedia.org/wikipedia/commons/9/92/Basilica_Sancti_Petri_blue_hour.jpg",
    "website_url": "https://www.basilicasanpietro.va"
  },
  {
    "name": "Notre-Dame de Paris",
    "religion": "Christianity",
    "denomination": "Roman Catholic",
    "country": "France",
    "city": "Paris",
    "address": "6 Parvis Notre-Dame - Pl. Jean-Paul II",
    "latitude": 48.853,
    "longitude": 2.3499,
    "description": "A historic medieval Catholic cathedral on the Ile de la Cite.",
    "image_url": "https://upload.wikimedia.org/wikipedia/commons/4/42/Notre_Dame_Paris_front_facade_lower.jpg",
    "website_url": "https://www.notredamedeparis.fr"
  },
  {
    "name": "Sultan Ahmed Mosque",
    "religion": "Islam",
    "denomination": "Sunni",
    "country": "Turkey",
    "city": "Istanbul",
    "address": "Sultan Ahmet, Atmeydani Cd. No:7",
    "latitude": 41.0054,
    "longitude": 28.9768,
    "description": "Historic Ottoman mosque commonly known as the Blue Mosque.",
    "image_url": "https://upload.wikimedia.org/wikipedia/commons/7/77/Blue_Mosque_Courtyard_Dusk_Wikimedia_Commons.jpg",
    "website_url": "https://www.sultanahmetcamii.org"
  },
  {
    "name": "Great Mosque of Mecca",
    "religion": "Islam",
    "denomination": "Sunni",
    "country": "Saudi Arabia",
    "city": "Mecca",
    "address": "Al Haram",
    "latitude": 21.4225,
    "longitude": 39.8262,
    "description": "The holiest mosque in Islam, surrounding the Kaaba.",
    "image_url": "https://upload.wikimedia.org/wikipedia/commons/1/17/Supplicating_Pilgrim_at_Masjid_Al_Haram._Mecca%2C_Saudi_Arabia.jpg",
    "website_url": "https://gph.gov.sa"
  },
  {
    "name": "Sheikh Zayed Grand Mosque",
    "religion": "Islam",
    "denomination": "Sunni",
    "country": "United Arab Emirates",
    "city": "Abu Dhabi",
    "address": "Sheikh Rashid Bin Saeed Street",
    "latitude": 24.4128,
    "longitude": 54.4749,
    "description": "A large contemporary mosque and major place of worship in Abu Dhabi.",
    "image_url": "https://upload.wikimedia.org/wikipedia/commons/f/f3/Sheikh_Zayed_Grand_Mosque_in_Abu_Dhabi_-_panoramio.jpg",
    "website_url": "https://www.szgmc.gov.ae"
  },
  {
    "name": "Western Wall",
    "religion": "Judaism",
    "denomination": "Jewish",
    "country": "Israel",
    "city": "Jerusalem",
    "address": "Western Wall Plaza",
    "latitude": 31.7767,
    "longitude": 35.2345,
    "description": "One of the most sacred prayer sites in Judaism.",
    "image_url": "https://upload.wikimedia.org/wikipedia/commons/8/8b/Western_wall_and_its_square%2C_jerusalem.jpg",
    "website_url": "https://thekotel.org/en"
  },
  {
    "name": "Dohanyi Street Synagogue",
    "religion": "Judaism",
    "denomination": "Neolog Jewish",
    "country": "Hungary",
    "city": "Budapest",
    "address": "Dohany u. 2",
    "latitude": 47.4959,
    "longitude": 19.0606,
    "description": "A historic synagogue and one of the largest synagogues in Europe.",
    "image_url": "https://upload.wikimedia.org/wikipedia/commons/9/9b/Budape%C5%A1%C5%A5%2C_Erzsebetv%C3%A1ros%2C_synagoga%2C_vchod.JPG",
    "website_url": "https://www.greatsynagogue.hu"
  },
  {
    "name": "Park East Synagogue",
    "religion": "Judaism",
    "denomination": "Orthodox Jewish",
    "country": "United States",
    "city": "New York",
    "address": "163 E 67th Street",
    "latitude": 40.7675,
    "longitude": -73.9638,
    "description": "A historic Orthodox synagogue on Manhattan's Upper East Side.",
    "image_url": "https://upload.wikimedia.org/wikipedia/commons/4/45/Park-east-synagogue.jpg",
    "website_url": "https://www.parkeastsynagogue.org"
  },
  {
    "name": "Wat Pho",
    "religion": "Buddhism",
    "denomination": "Theravada",
    "country": "Thailand",
    "city": "Bangkok",
    "address": "2 Sanam Chai Road",
    "latitude": 13.7465,
    "longitude": 100.493,
    "description": "Historic Buddhist temple known for the Reclining Buddha.",
    "image_url": "https://upload.wikimedia.org/wikipedia/commons/1/1c/Wat_Pho%2C_Bangkok%2C_Tailandia%2C_2013-08-22%2C_DD_02.jpg",
    "website_url": "https://www.watpho.com"
  },
  {
    "name": "Borobudur Temple",
    "religion": "Buddhism",
    "denomination": "Mahayana",
    "country": "Indonesia",
    "city": "Magelang",
    "address": "Jl. Badrawati, Borobudur",
    "latitude": -7.6079,
    "longitude": 110.2038,
    "description": "A monumental Buddhist temple and UNESCO World Heritage site.",
    "image_url": "https://upload.wikimedia.org/wikipedia/commons/8/8c/Borobudur-Nothwest-view.jpg",
    "website_url": "https://borobudurpark.com"
  },
  {
    "name": "Todaiji Temple",
    "religion": "Buddhism",
    "denomination": "Kegon",
    "country": "Japan",
    "city": "Nara",
    "address": "406-1 Zoshicho",
    "latitude": 34.689,
    "longitude": 135.8398,
    "description": "A famous Buddhist temple complex housing the Great Buddha of Nara.",
    "image_url": "https://upload.wikimedia.org/wikipedia/commons/5/5f/Vairocana_of_Todaiji_Temple%2C_Nara%2C_Japan%2C_20240819_1617_4838.jpg",
    "website_url": "https://www.todaiji.or.jp/en"
  },
  {
    "name": "Kashi Vishwanath Temple",
    "religion": "Hinduism",
    "denomination": "Shaivism",
    "country": "India",
    "city": "Varanasi",
    "address": "Lahori Tola",
    "latitude": 25.3109,
    "longitude": 83.0107,
    "description": "A prominent Hindu temple dedicated to Lord Shiva.",
    "image_url": "https://upload.wikimedia.org/wikipedia/commons/e/ec/Shri_Kashi_Vishwanath_Temple_2.jpg",
    "website_url": "https://shrikashivishwanath.org"
  },
  {
    "name": "Meenakshi Amman Temple",
    "religion": "Hinduism",
    "denomination": "Shaivism",
    "country": "India",
    "city": "Madurai",
    "address": "Madurai Main",
    "latitude": 9.9195,
    "longitude": 78.1193,
    "description": "A major Hindu temple dedicated to Meenakshi and Sundareswarar.",
    "image_url": "https://upload.wikimedia.org/wikipedia/commons/d/d9/Meenakshi_Amman_Temple%2C_Madurai.JPG",
    "website_url": "https://maduraimeenakshi.hrce.tn.gov.in"
  },
  {
    "name": "Pashupatinath Temple",
    "religion": "Hinduism",
    "denomination": "Shaivism",
    "country": "Nepal",
    "city": "Kathmandu",
    "address": "Pashupati Nath Road",
    "latitude": 27.7106,
    "longitude": 85.3487,
    "description": "A sacred Hindu temple complex dedicated to Lord Shiva.",
    "image_url": "https://upload.wikimedia.org/wikipedia/commons/4/4b/The_Pashupatinath_Temple_27.jpg",
    "website_url": "https://pashupatinathtemple.org"
  },
  {
    "name": "Sri Harmandir Sahib",
    "religion": "Sikhism",
    "denomination": "Sikh",
    "country": "India",
    "city": "Amritsar",
    "address": "Golden Temple Road",
    "latitude": 31.62,
    "longitude": 74.8765,
    "description": "The Golden Temple, the central place of worship for Sikhs.",
    "image_url": "https://upload.wikimedia.org/wikipedia/commons/4/41/Sikh_pilgrim_at_the_Golden_Temple_%28Harmandir_Sahib%29_in_Amritsar%2C_India.jpg",
    "website_url": "https://sgpc.net/sri-harmandir-sahib"
  },
  {
    "name": "Bahai House of Worship",
    "religion": "Bahai Faith",
    "denomination": "Bahai",
    "country": "India",
    "city": "New Delhi",
    "address": "Lotus Temple Road",
    "latitude": 28.5535,
    "longitude": 77.2588,
    "description": "A Bahai House of Worship known as the Lotus Temple.",
    "image_url": "https://upload.wikimedia.org/wikipedia/commons/d/dc/Lotus_Temple_in_New_Delhi_03-2016.jpg",
    "website_url": "https://bahaihouseofworship.in"
  },
  {
    "name": "Meiji Shrine",
    "religion": "Shinto",
    "denomination": "Shinto",
    "country": "Japan",
    "city": "Tokyo",
    "address": "1-1 Yoyogikamizonocho, Shibuya",
    "latitude": 35.6764,
    "longitude": 139.6993,
    "description": "A Shinto shrine dedicated to Emperor Meiji and Empress Shoken.",
    "image_url": "https://upload.wikimedia.org/wikipedia/commons/5/51/Tree_roots_at_Meiji_Shrine.jpg",
    "website_url": "https://www.meijijingu.or.jp/en"
  },
  {
    "name": "Cao Dai Holy See",
    "religion": "Cao Dai",
    "denomination": "Cao Dai",
    "country": "Vietnam",
    "city": "Tay Ninh",
    "address": "Pham Ho Phap Street",
    "latitude": 11.3101,
    "longitude": 106.1238,
    "description": "The central temple of the Cao Dai religion in Vietnam.",
    "image_url": "https://upload.wikimedia.org/wikipedia/commons/7/7c/The_Cao_%C4%90%C3%A0i_T%C3%A2y_Ninh_Holy_See_%2812162033965%29.jpg",
    "website_url": null
  },
  {
    "name": "Fire Temple of Yazd",
    "religion": "Zoroastrianism",
    "denomination": "Zoroastrian",
    "country": "Iran",
    "city": "Yazd",
    "address": "Ayatollah Kashani Boulevard",
    "latitude": 31.8974,
    "longitude": 54.3677,
    "description": "A Zoroastrian fire temple preserving a sacred flame.",
    "image_url": "https://upload.wikimedia.org/wikipedia/commons/e/e0/Templo_zoroastrista%2C_Yazd%2C_Ir%C3%A1n%2C_2016-09-21%2C_DD_45.jpg",
    "website_url": null
  }
]
